{
  "data": [
    {
      "id": "AK_1032034",
      "name": "Tatitlek Landfill",
      "streetAddress": "N/A",
      "city": "Tatitlek",
      "county": null,
      "stateCode": "AK",
      "epaRegion": "10",
      "zipCode": "99677",
      "latitude": "60.874301",
      "longitude": "-146.686495",
      "location": "0101000020E6100000C3BB5CC4F75562C018EE5C18E96F4E40",
      "contactPhone": "907-325-2311",
      "sourceId": "1032034",
      "facilitySubtypes": "C&D Recyclers (U.S. EPA/OLEM (2020)), Inert or Construction and Demolition Landfills (U.S. EPA/OLEM (2020))",
      "facilitySubtypeIds": "33,5",
      "facilityTypes": true,
      "facilityTypeIds": 1,
      "hasDfr": 0,
      "totalCount": 41909
    },
    {
      "id": "AK_1032035",
      "name": "Telida Landfill",
      "streetAddress": "N/A",
      "city": "Telida",
      "county": null,
      "stateCode": "AK",
      "epaRegion": "10",
      "zipCode": "99757",
      "latitude": "63.383241",
      "longitude": "-153.303034",
      "location": "0101000020E61000006FF25B74B22963C040BE840A0EB14F40",
      "contactPhone": "907-293-2641",
      "sourceId": "1032035",
      "facilitySubtypes": "C&D Recyclers (U.S. EPA/OLEM (2020)), Inert or Construction and Demolition Landfills (U.S. EPA/OLEM (2020))",
      "facilitySubtypeIds": "33,5",
      "facilityTypes": true,
      "facilityTypeIds": 1,
      "hasDfr": 0,
      "totalCount": 41909
    },
    {
      "id": "AK_1032036",
      "name": "Teller Landfill",
      "streetAddress": "N/A",
      "city": "Teller",
      "county": null,
      "stateCode": "AK",
      "epaRegion": "10",
      "zipCode": "99778",
      "latitude": "65.215301",
      "longitude": "-166.316974",
      "location": "0101000020E6100000D575A8A624CA64C0F372D87DC74D5040",
      "contactPhone": "907-642-3401",
      "sourceId": "1032036",
      "facilitySubtypes": "C&D Recyclers (U.S. EPA/OLEM (2020)), Inert or Construction and Demolition Landfills (U.S. EPA/OLEM (2020))",
      "facilitySubtypeIds": "33,5",
      "facilityTypes": true,
      "facilityTypeIds": 1,
      "hasDfr": 0,
      "totalCount": 41909
    },
    {
      "id": "AK_1032037",
      "name": "Tetlin 5 mile East Landfill",
      "streetAddress": "N/A",
      "city": "Tetlin",
      "county": null,
      "stateCode": "AK",
      "epaRegion": "10",
      "zipCode": "99780",
      "latitude": "63.138686",
      "longitude": "-142.514853",
      "location": "0101000020E6100000EBA7FFAC79D061C0DF347D76C0914F40",
      "contactPhone": "907-883-1268",
      "sourceId": "1032037",
      "facilitySubtypes": "Inert or Construction and Demolition Landfills (U.S. EPA/OLEM (2020)), C&D Recyclers (U.S. EPA/OLEM (2020))",
      "facilitySubtypeIds": "5,33",
      "facilityTypes": true,
      "facilityTypeIds": 1,
      "hasDfr": 0,
      "totalCount": 41909
    },
    {
      "id": "AK_1032038",
      "name": "Thorne Bay Landfill",
      "streetAddress": "N/A",
      "city": "Thorne Bay",
      "county": null,
      "stateCode": "AK",
      "epaRegion": "10",
      "zipCode": "99919",
      "latitude": "55.6924",
      "longitude": "-132.623",
      "location": "0101000020E61000000E2DB29DEF9360C00DE02D90A0D84B40",
      "contactPhone": "907-828-3380",
      "sourceId": "1032038",
      "facilitySubtypes": "Inert or Construction and Demolition Landfills (U.S. EPA/OLEM (2020)), C&D Recyclers (U.S. EPA/OLEM (2020))",
      "facilitySubtypeIds": "5,33",
      "facilityTypes": true,
      "facilityTypeIds": 1,
      "hasDfr": 0,
      "totalCount": 41909
    },
    {
      "id": "AK_1032039",
      "name": "Tok Landfill",
      "streetAddress": "N/A",
      "city": "Tok",
      "county": null,
      "stateCode": "AK",
      "epaRegion": "10",
      "zipCode": "99780",
      "latitude": "63.280002",
      "longitude": "-143.018328",
      "location": "0101000020E61000003C139A2496E061C04568041BD7A34F40",
      "contactPhone": "907-883-5031",
      "sourceId": "1032039",
      "facilitySubtypes": "Inert or Construction and Demolition Landfills (U.S. EPA/OLEM (2020)), C&D Recyclers (U.S. EPA/OLEM (2020))",
      "facilitySubtypeIds": "5,33",
      "facilityTypes": true,
      "facilityTypeIds": 1,
      "hasDfr": 0,
      "totalCount": 41909
    },
    {
      "id": "AK_1032040",
      "name": "Toksook Bay Landfill",
      "streetAddress": "N/A",
      "city": "Toksook Bay",
      "county": null,
      "stateCode": "AK",
      "epaRegion": "10",
      "zipCode": "99637",
      "latitude": "60.525545",
      "longitude": "-165.120412",
      "location": "0101000020E61000007841446ADAA364C0C5C9FD0E45434E40",
      "contactPhone": "907-427-7511",
      "sourceId": "1032040",
      "facilitySubtypes": "C&D Recyclers (U.S. EPA/OLEM (2020)), Inert or Construction and Demolition Landfills (U.S. EPA/OLEM (2020))",
      "facilitySubtypeIds": "33,5",
      "facilityTypes": true,
      "facilityTypeIds": 1,
      "hasDfr": 0,
      "totalCount": 41909
    },
    {
      "id": "AK_1032041",
      "name": "Tolsona Landfill",
      "streetAddress": "N/A",
      "city": "Tolsona",
      "county": null,
      "stateCode": "AK",
      "epaRegion": "10",
      "zipCode": "99588",
      "latitude": "62.100773",
      "longitude": "-146.099381",
      "location": "0101000020E6100000001B10212E4362C0EFA83121E60C4F40",
      "contactPhone": "907-822-3865",
      "sourceId": "1032041",
      "facilitySubtypes": "C&D Recyclers (U.S. EPA/OLEM (2020)), Inert or Construction and Demolition Landfills (U.S. EPA/OLEM (2020))",
      "facilitySubtypeIds": "33,5",
      "facilityTypes": true,
      "facilityTypeIds": 1,
      "hasDfr": 0,
      "totalCount": 41909
    },
    {
      "id": "AK_1032042",
      "name": "Tuluksak Dump Road Landfill",
      "streetAddress": "N/A",
      "city": "Tuluksak",
      "county": null,
      "stateCode": "AK",
      "epaRegion": "10",
      "zipCode": "99679",
      "latitude": "61.092542",
      "longitude": "-160.957018",
      "location": "0101000020E6100000DE7536E49F1E64C0D3C08F6AD88B4E40",
      "contactPhone": "907-695-6006",
      "sourceId": "1032042",
      "facilitySubtypes": "C&D Recyclers (U.S. EPA/OLEM (2020)), Inert or Construction and Demolition Landfills (U.S. EPA/OLEM (2020))",
      "facilitySubtypeIds": "33,5",
      "facilityTypes": true,
      "facilityTypeIds": 1,
      "hasDfr": 0,
      "totalCount": 41909
    },
    {
      "id": "AK_1032043",
      "name": "Tuntutuliak Landfill",
      "streetAddress": "N/A",
      "city": "Tuntutuliak",
      "county": null,
      "stateCode": "AK",
      "epaRegion": "10",
      "zipCode": "99680",
      "latitude": "60.350468",
      "longitude": "-162.684545",
      "location": "0101000020E61000007E74EACAE75564C0B325AB22DC2C4E40",
      "contactPhone": "907-256-2128",
      "sourceId": "1032043",
      "facilitySubtypes": "Inert or Construction and Demolition Landfills (U.S. EPA/OLEM (2020)), C&D Recyclers (U.S. EPA/OLEM (2020))",
      "facilitySubtypeIds": "5,33",
      "facilityTypes": true,
      "facilityTypeIds": 1,
      "hasDfr": 0,
      "totalCount": 41909
    },
    {
      "id": "AK_1032044",
      "name": "Tununak Landfill",
      "streetAddress": "N/A",
      "city": "Tununak",
      "county": null,
      "stateCode": "AK",
      "epaRegion": "10",
      "zipCode": "99681",
      "latitude": "60.573453",
      "longitude": "-165.284214",
      "location": "0101000020E61000001762F54718A964C084656CE866494E40",
      "contactPhone": "907-652-6537",
      "sourceId": "1032044",
      "facilitySubtypes": "C&D Recyclers (U.S. EPA/OLEM (2020)), Inert or Construction and Demolition Landfills (U.S. EPA/OLEM (2020))",
      "facilitySubtypeIds": "33,5",
      "facilityTypes": true,
      "facilityTypeIds": 1,
      "hasDfr": 0,
      "totalCount": 41909
    },
    {
      "id": "AK_1032045",
      "name": "Tyonek Landfill",
      "streetAddress": "N/A",
      "city": "Tyonek",
      "county": null,
      "stateCode": "AK",
      "epaRegion": "10",
      "zipCode": "99682",
      "latitude": "61.083784",
      "longitude": "-151.178863",
      "location": "0101000020E6100000DDEEE53EB9E562C0CBF6216FB98A4E40",
      "contactPhone": "907-262-9667",
      "sourceId": "1032045",
      "facilitySubtypes": "Inert or Construction and Demolition Landfills (U.S. EPA/OLEM (2020)), C&D Recyclers (U.S. EPA/OLEM (2020))",
      "facilitySubtypeIds": "5,33",
      "facilityTypes": true,
      "facilityTypeIds": 1,
      "hasDfr": 0,
      "totalCount": 41909
    },
    {
      "id": "AK_1032046",
      "name": "Unalaska Landfill - Class I",
      "streetAddress": "1181 Summers Bay Road",
      "city": "Unalaska",
      "county": null,
      "stateCode": "AK",
      "epaRegion": "10",
      "zipCode": "99692",
      "latitude": "53.884054",
      "longitude": "-166.507949",
      "location": "0101000020E610000026E1421E41D064C0F1F274AE28F14A40",
      "contactPhone": "907-581-5757",
      "sourceId": "1032046",
      "facilitySubtypes": "C&D Recyclers (U.S. EPA/OLEM (2020)), Inert or Construction and Demolition Landfills (U.S. EPA/OLEM (2020))",
      "facilitySubtypeIds": "33,5",
      "facilityTypes": true,
      "facilityTypeIds": 1,
      "hasDfr": 0,
      "totalCount": 41909
    },
    {
      "id": "AK_1032047",
      "name": "Usibelli Coal Mine Landfill",
      "streetAddress": "Usibelli Coal Mine",
      "city": "Healy",
      "county": null,
      "stateCode": "AK",
      "epaRegion": "10",
      "zipCode": "99743",
      "latitude": "63.9008",
      "longitude": "-148.9396",
      "location": "0101000020E61000004BEA0434119E62C04F1E166A4DF34F40",
      "contactPhone": "907-683-9739",
      "sourceId": "1032047",
      "facilitySubtypes": "C&D Recyclers (U.S. EPA/OLEM (2020)), Inert or Construction and Demolition Landfills (U.S. EPA/OLEM (2020))",
      "facilitySubtypeIds": "33,5",
      "facilityTypes": true,
      "facilityTypeIds": 1,
      "hasDfr": 0,
      "totalCount": 41909
    },
    {
      "id": "AK_1032048",
      "name": "Valdez C&D Landfill",
      "streetAddress": "Haul Rd",
      "city": "Valdez",
      "county": null,
      "stateCode": "AK",
      "epaRegion": "10",
      "zipCode": "99686",
      "latitude": "61.132292",
      "longitude": "-146.206386",
      "location": "0101000020E6100000460BD0B69A4662C0DFC2BAF1EE904E40",
      "contactPhone": "907-835-4473",
      "sourceId": "1032048",
      "facilitySubtypes": "C&D Recyclers (U.S. EPA/OLEM (2020)), Inert or Construction and Demolition Landfills (U.S. EPA/OLEM (2020))",
      "facilitySubtypeIds": "33,5",
      "facilityTypes": true,
      "facilityTypeIds": 1,
      "hasDfr": 0,
      "totalCount": 41909
    },
    {
      "id": "AK_1032049",
      "name": "Valdez Landfill",
      "streetAddress": "N/A",
      "city": "Valdez",
      "county": null,
      "stateCode": "AK",
      "epaRegion": "10",
      "zipCode": "99686",
      "latitude": "61.118861",
      "longitude": "-146.224717",
      "location": "0101000020E61000005EBBB4E1304762C08BE255D6368F4E40",
      "contactPhone": "907-835-4473",
      "sourceId": "1032049",
      "facilitySubtypes": "Inert or Construction and Demolition Landfills (U.S. EPA/OLEM (2020)), C&D Recyclers (U.S. EPA/OLEM (2020))",
      "facilitySubtypeIds": "5,33",
      "facilityTypes": true,
      "facilityTypeIds": 1,
      "hasDfr": 0,
      "totalCount": 41909
    },
    {
      "id": "AK_1032050",
      "name": "Venetie Landfill",
      "streetAddress": "N/A",
      "city": "Venetie",
      "county": null,
      "stateCode": "AK",
      "epaRegion": "10",
      "zipCode": "99781",
      "latitude": "67.020376",
      "longitude": "-146.395505",
      "location": "0101000020E6100000F20C1AFAA74C62C0E46723D74DC15040",
      "contactPhone": "907-587-5523",
      "sourceId": "1032050",
      "facilitySubtypes": "Inert or Construction and Demolition Landfills (U.S. EPA/OLEM (2020)), C&D Recyclers (U.S. EPA/OLEM (2020))",
      "facilitySubtypeIds": "5,33",
      "facilityTypes": true,
      "facilityTypeIds": 1,
      "hasDfr": 0,
      "totalCount": 41909
    },
    {
      "id": "AK_1032051",
      "name": "White Mountain Landfill",
      "streetAddress": "N/A",
      "city": "White Mountain",
      "county": null,
      "stateCode": "AK",
      "epaRegion": "10",
      "zipCode": "99784",
      "latitude": "64.677203",
      "longitude": "-163.389606",
      "location": "0101000020E6100000698A00A7776C64C03370404B572B5040",
      "contactPhone": "907-638-9411",
      "sourceId": "1032051",
      "facilitySubtypes": "Inert or Construction and Demolition Landfills (U.S. EPA/OLEM (2020)), C&D Recyclers (U.S. EPA/OLEM (2020))",
      "facilitySubtypeIds": "5,33",
      "facilityTypes": true,
      "facilityTypeIds": 1,
      "hasDfr": 0,
      "totalCount": 41909
    },
    {
      "id": "AK_1032052",
      "name": "Yakutat Landfill",
      "streetAddress": "N/A",
      "city": "Yakutat",
      "county": null,
      "stateCode": "AK",
      "epaRegion": "10",
      "zipCode": "99689",
      "latitude": "59.551191",
      "longitude": "-139.688476",
      "location": "0101000020E61000009702D2FE077661C0BE6C3B6D8DC64D40",
      "contactPhone": "907-784-3323",
      "sourceId": "1032052",
      "facilitySubtypes": "C&D Recyclers (U.S. EPA/OLEM (2020)), Inert or Construction and Demolition Landfills (U.S. EPA/OLEM (2020))",
      "facilitySubtypeIds": "33,5",
      "facilityTypes": true,
      "facilityTypeIds": 1,
      "hasDfr": 0,
      "totalCount": 41909
    },
    {
      "id": "AK_1032054",
      "name": "Akiachak Landfill",
      "streetAddress": "N/A",
      "city": "Akiachak",
      "county": null,
      "stateCode": "AK",
      "epaRegion": "10",
      "zipCode": "99551",
      "latitude": "60.915733",
      "longitude": "-161.440198",
      "location": "0101000020E610000078B81D1A162E64C01A6F2BBD36754E40",
      "contactPhone": "907-825-4626",
      "sourceId": "1032054",
      "facilitySubtypes": "C&D Recyclers (U.S. EPA/OLEM (2020)), Inert or Construction and Demolition Landfills (U.S. EPA/OLEM (2020))",
      "facilitySubtypeIds": "33,5",
      "facilityTypes": true,
      "facilityTypeIds": 1,
      "hasDfr": 0,
      "totalCount": 41909
    },
    {
      "id": "AK_1032075",
      "name": "Batteries & Bulbs",
      "streetAddress": "910 West International Blvd",
      "city": "Anchorage",
      "county": null,
      "stateCode": "AK",
      "epaRegion": "10",
      "zipCode": "99518",
      "latitude": "61.15914",
      "longitude": "-149.88378",
      "location": "0101000020E61000007C9BFEEC47BC62C023BE13B35E944E40",
      "contactPhone": "907-770-6110",
      "sourceId": "1032075",
      "facilitySubtypes": "Electronics Recyclers (U.S. EPA/OLEM (2020))",
      "facilitySubtypeIds": "36",
      "facilityTypes": true,
      "facilityTypeIds": 7,
      "hasDfr": 0,
      "totalCount": 41909
    },
    {
      "id": "AK_1032076",
      "name": "Central Peninsula Landfill",
      "streetAddress": "N/A",
      "city": "Soldotna",
      "county": null,
      "stateCode": "AK",
      "epaRegion": "10",
      "zipCode": "99669",
      "latitude": "60.443179",
      "longitude": "-151.107615",
      "location": "0101000020E6100000E431039571E362C012A3E716BA384E40",
      "contactPhone": "907-262-9667",
      "sourceId": "1032076",
      "facilitySubtypes": "Electronics Recyclers (U.S. EPA/OLEM (2020))",
      "facilitySubtypeIds": "36",
      "facilityTypes": true,
      "facilityTypeIds": 7,
      "hasDfr": 0,
      "totalCount": 41909
    },
    {
      "id": "AK_1032077",
      "name": "Seward Transfer Facility",
      "streetAddress": "3200 Dimond Blvd",
      "city": "Seward",
      "county": null,
      "stateCode": "AK",
      "epaRegion": "10",
      "zipCode": "99664",
      "latitude": "60.151332",
      "longitude": "-149.450595",
      "location": "0101000020E6100000B79734466BAE62C04C6BD3D85E134E40",
      "contactPhone": "907-262-9667",
      "sourceId": "1032077",
      "facilitySubtypes": "Electronics Recyclers (U.S. EPA/OLEM (2020))",
      "facilitySubtypeIds": "36",
      "facilityTypes": true,
      "facilityTypeIds": 7,
      "hasDfr": 0,
      "totalCount": 41909
    },
    {
      "id": "AK_1032078",
      "name": "Sitka Transfer Station",
      "streetAddress": "205 Jarvis St",
      "city": "Sitka",
      "county": null,
      "stateCode": "AK",
      "epaRegion": "10",
      "zipCode": "99835",
      "latitude": "57.051629",
      "longitude": "-135.310257",
      "location": "0101000020E61000005D8B16A0EDE960C0394371C79B864C40",
      "contactPhone": "907-747-8644",
      "sourceId": "1032078",
      "facilitySubtypes": "Electronics Recyclers (U.S. EPA/OLEM (2020))",
      "facilitySubtypeIds": "36",
      "facilityTypes": true,
      "facilityTypeIds": 7,
      "hasDfr": 0,
      "totalCount": 41909
    },
    {
      "id": "AK_1032079",
      "name": "Total Reclaim",
      "streetAddress": "2050 Industry Way",
      "city": "Anchorage",
      "county": null,
      "stateCode": "AK",
      "epaRegion": "10",
      "zipCode": "99515",
      "latitude": "61.11121746",
      "longitude": "-149.861538",
      "location": "0101000020E61000005CC823B891BB62C0DBB8AC5F3C8E4E40",
      "contactPhone": "907-561-0544",
      "sourceId": "1032079",
      "facilitySubtypes": "Electronics Recyclers (U.S. EPA/OLEM (2020))",
      "facilitySubtypeIds": "36",
      "facilityTypes": true,
      "facilityTypeIds": 7,
      "hasDfr": 0,
      "totalCount": 41909
    },
    {
      "id": "AK_1032080",
      "name": "Total Reclaim",
      "streetAddress": "12050 Industry Way",
      "city": "Anchorage",
      "county": null,
      "stateCode": "AK",
      "epaRegion": "10",
      "zipCode": "99515",
      "latitude": "61.111727",
      "longitude": "-149.862616",
      "location": "0101000020E610000034A0DE8C9ABB62C0448A01124D8E4E40",
      "contactPhone": "907-561-0544",
      "sourceId": "1032080",
      "facilitySubtypes": "Electronics Recyclers (U.S. EPA/OLEM (2020))",
      "facilitySubtypeIds": "36",
      "facilityTypes": true,
      "facilityTypeIds": 7,
      "hasDfr": 0,
      "totalCount": 41909
    },
    {
      "id": "AK_1032081",
      "name": "CBJ HHW Facility",
      "streetAddress": "5436 Commercial Blvd",
      "city": "Juneau",
      "county": null,
      "stateCode": "AK",
      "epaRegion": "10",
      "zipCode": "99801",
      "latitude": "58.357508",
      "longitude": "-134.490283",
      "location": "0101000020E61000001D59F965B0CF60C0790778D2C22D4D40",
      "contactPhone": "907-780-6691",
      "sourceId": "1032081",
      "facilitySubtypes": "Household Hazardous Waste Collection (U.S. EPA/OLEM (2020))",
      "facilitySubtypeIds": "37",
      "facilityTypes": true,
      "facilityTypeIds": 7,
      "hasDfr": 0,
      "totalCount": 41909
    },
    {
      "id": "AK_1032082",
      "name": "Central Transfer Station",
      "streetAddress": "1111 East 56th Ave",
      "city": "Anchorage",
      "county": null,
      "stateCode": "AK",
      "epaRegion": "10",
      "zipCode": "99518",
      "latitude": "60.443179",
      "longitude": "-151.107615",
      "location": "0101000020E6100000E431039571E362C012A3E716BA384E40",
      "contactPhone": "907-343-6250",
      "sourceId": "1032082",
      "facilitySubtypes": "Electronics Recyclers (U.S. EPA/OLEM (2020)), Household Hazardous Waste Collection (U.S. EPA/OLEM (2020))",
      "facilitySubtypeIds": "36,37",
      "facilityTypes": true,
      "facilityTypeIds": 7,
      "hasDfr": 0,
      "totalCount": 41909
    },
    {
      "id": "AK_1032083",
      "name": "Fairbanks Central Recycling Facility",
      "streetAddress": "1855 Marika Rd",
      "city": "Fairbanks",
      "county": null,
      "stateCode": "AK",
      "epaRegion": "10",
      "zipCode": "99701",
      "latitude": "64.85334",
      "longitude": "-147.765938",
      "location": "0101000020E610000070986890827862C09817601F9D365040",
      "contactPhone": "907-459-1332",
      "sourceId": "1032083",
      "facilitySubtypes": "Household Hazardous Waste Collection (U.S. EPA/OLEM (2020)), Electronics Recyclers (U.S. EPA/OLEM (2020))",
      "facilitySubtypeIds": "37,36",
      "facilityTypes": true,
      "facilityTypeIds": 7,
      "hasDfr": 0,
      "totalCount": 41909
    },
    {
      "id": "AK_1032084",
      "name": "Homer Baler Facility",
      "streetAddress": "Mile 169.3 Sterling Highway",
      "city": "Homer",
      "county": null,
      "stateCode": "AK",
      "epaRegion": "10",
      "zipCode": "99603",
      "latitude": "59.661687",
      "longitude": "-151.63665",
      "location": "0101000020E6100000F31FD26F5FF462C01C98DC28B2D44D40",
      "contactPhone": "907-262-9667",
      "sourceId": "1032084",
      "facilitySubtypes": "Electronics Recyclers (U.S. EPA/OLEM (2020)), Household Hazardous Waste Collection (U.S. EPA/OLEM (2020))",
      "facilitySubtypeIds": "36,37",
      "facilityTypes": true,
      "facilityTypeIds": 7,
      "hasDfr": 0,
      "totalCount": 41909
    },
    {
      "id": "AK_1032085",
      "name": "Juneau Public Works",
      "streetAddress": "5600 Tonsgard Court",
      "city": "Juneau",
      "county": null,
      "stateCode": "AK",
      "epaRegion": "10",
      "zipCode": "99801",
      "latitude": "58.35222",
      "longitude": "-134.5002",
      "location": "0101000020E6100000B22E6EA301D060C0A27F828B152D4D40",
      "contactPhone": "907-780-6691",
      "sourceId": "1032085",
      "facilitySubtypes": "Household Hazardous Waste Collection (U.S. EPA/OLEM (2020)), Electronics Recyclers (U.S. EPA/OLEM (2020))",
      "facilitySubtypeIds": "37,36",
      "facilityTypes": true,
      "facilityTypeIds": 7,
      "hasDfr": 0,
      "totalCount": 41909
    },
    {
      "id": "AK_1032086",
      "name": "Kotzebue Landfill - Class II",
      "streetAddress": "Air Force Road",
      "city": "Kotzebue",
      "county": null,
      "stateCode": "AK",
      "epaRegion": "10",
      "zipCode": "99752",
      "latitude": "66.85445",
      "longitude": "-162.608641",
      "location": "0101000020E610000027C0B0FC795364C04D840D4FAFB65040",
      "contactPhone": "907-442-3401",
      "sourceId": "1032086",
      "facilitySubtypes": "Household Hazardous Waste Collection (U.S. EPA/OLEM (2020))",
      "facilitySubtypeIds": "37",
      "facilityTypes": true,
      "facilityTypeIds": 7,
      "hasDfr": 0,
      "totalCount": 41909
    },
    {
      "id": "AK_1032087",
      "name": "Palmer MSB Central Landfill - Class I",
      "streetAddress": "1201 N. 49th State Street",
      "city": "Palmer",
      "county": null,
      "stateCode": "AK",
      "epaRegion": "10",
      "zipCode": "99645",
      "latitude": "61.591807",
      "longitude": "-149.20867",
      "location": "0101000020E61000000135B56CADA662C09E45EF54C0CB4E40",
      "contactPhone": "907-861-7600",
      "sourceId": "1032087",
      "facilitySubtypes": "Household Hazardous Waste Collection (U.S. EPA/OLEM (2020))",
      "facilitySubtypeIds": "37",
      "facilityTypes": true,
      "facilityTypeIds": 7,
      "hasDfr": 0,
      "totalCount": 41909
    },
    {
      "id": "AK_1032088",
      "name": "Threshold Recycling Services",
      "streetAddress": "380 Von Scheele Way",
      "city": "Kodiak",
      "county": null,
      "stateCode": "AK",
      "epaRegion": "10",
      "zipCode": "99615",
      "latitude": "57.810115",
      "longitude": "-152.372662",
      "location": "0101000020E6100000C8CEDBD8EC0B63C0E17F2BD9B1E74C40",
      "contactPhone": "907-486-6551",
      "sourceId": "1032088",
      "facilitySubtypes": "Household Hazardous Waste Collection (U.S. EPA/OLEM (2020))",
      "facilitySubtypeIds": "37",
      "facilityTypes": true,
      "facilityTypeIds": 7,
      "hasDfr": 0,
      "totalCount": 41909
    },
    {
      "id": "AK_1032089",
      "name": "C&R Metal Recycling",
      "streetAddress": "401 E Van Horn Rd",
      "city": "Fairbanks",
      "county": null,
      "stateCode": "AK",
      "epaRegion": "10",
      "zipCode": "99701",
      "latitude": "64.812672",
      "longitude": "-147.697",
      "location": "0101000020E6100000FCA9F1D24D7662C0FF976BD102345040",
      "contactPhone": "907-452-4417",
      "sourceId": "1032089",
      "facilitySubtypes": "Metal Recyclers (U.S. EPA/OLEM (2020))",
      "facilitySubtypeIds": "38",
      "facilityTypes": true,
      "facilityTypeIds": 7,
      "hasDfr": 0,
      "totalCount": 41909
    },
    {
      "id": "AK_1032090",
      "name": "Central Recycling Services",
      "streetAddress": "2400 Railroad Ave",
      "city": "Anchorage",
      "county": null,
      "stateCode": "AK",
      "epaRegion": "10",
      "zipCode": "99501",
      "latitude": "61.228407",
      "longitude": "-149.835604",
      "location": "0101000020E6100000048D9944BDBA62C0B796C9703C9D4E40",
      "contactPhone": "907-748-7400",
      "sourceId": "1032090",
      "facilitySubtypes": "C&D Recyclers (U.S. EPA/OLEM (2020)), Electronics Recyclers (U.S. EPA/OLEM (2020)), Metal Recyclers (U.S. EPA/OLEM (2020))",
      "facilitySubtypeIds": "33,36,38",
      "facilityTypes": true,
      "facilityTypeIds": 7,
      "hasDfr": 0,
      "totalCount": 41909
    },
    {
      "id": "AK_1032091",
      "name": "Central Recycling Services",
      "streetAddress": "311 North Sitka St",
      "city": "Anchorage",
      "county": null,
      "stateCode": "AK",
      "epaRegion": "10",
      "zipCode": "99501",
      "latitude": "61.22356029",
      "longitude": "-149.8456402",
      "location": "0101000020E6100000DA65097C0FBB62C0FD1DA39F9D9C4E40",
      "contactPhone": "907-748-7400",
      "sourceId": "1032091",
      "facilitySubtypes": "Metal Recyclers (U.S. EPA/OLEM (2020))",
      "facilitySubtypeIds": "38",
      "facilityTypes": true,
      "facilityTypeIds": 7,
      "hasDfr": 0,
      "totalCount": 41909
    },
    {
      "id": "AK_1032092",
      "name": "Peninsula Scrap and Salvage",
      "streetAddress": "42115 Kalifornsky Beach Rd Ste B",
      "city": "Soldotna",
      "county": null,
      "stateCode": "AK",
      "epaRegion": "10",
      "zipCode": "99669",
      "latitude": "60.57294",
      "longitude": "-151.16679",
      "location": "0101000020E61000009869FB5756E562C0FE48111956494E40",
      "contactPhone": "907-262-7258",
      "sourceId": "1032092",
      "facilitySubtypes": "Metal Recyclers (U.S. EPA/OLEM (2020))",
      "facilitySubtypeIds": "38",
      "facilityTypes": true,
      "facilityTypeIds": 7,
      "hasDfr": 0,
      "totalCount": 41909
    },
    {
      "id": "AK_1032093",
      "name": "Sitka Recycling Center",
      "streetAddress": "N/A",
      "city": "Sitka",
      "county": null,
      "stateCode": "AK",
      "epaRegion": "10",
      "zipCode": "99835",
      "latitude": "57.053465",
      "longitude": "-135.322302",
      "location": "0101000020E6100000EFAD484C50EA60C0863DEDF0D7864C40",
      "contactPhone": "907-747-5669",
      "sourceId": "1032093",
      "facilitySubtypes": "Metal Recyclers (U.S. EPA/OLEM (2020))",
      "facilitySubtypeIds": "38",
      "facilityTypes": true,
      "facilityTypeIds": 7,
      "hasDfr": 0,
      "totalCount": 41909
    },
    {
      "id": "AK_1032094",
      "name": "Valley Community for Recycling Solutions",
      "streetAddress": "9465 East Chanlyut Circle",
      "city": "Palmer",
      "county": null,
      "stateCode": "AK",
      "epaRegion": "10",
      "zipCode": "99645",
      "latitude": "61.590934",
      "longitude": "-149.214166",
      "location": "0101000020E610000049BDA772DAA662C0170CAEB9A3CB4E40",
      "contactPhone": "907-745-5544",
      "sourceId": "1032094",
      "facilitySubtypes": "Metal Recyclers (U.S. EPA/OLEM (2020))",
      "facilitySubtypeIds": "38",
      "facilityTypes": true,
      "facilityTypeIds": 7,
      "hasDfr": 0,
      "totalCount": 41909
    },
    {
      "id": "AK_1032095",
      "name": "WOTC Scrap Metal Recycling Inc",
      "streetAddress": "8820 King Street",
      "city": "Anchorage",
      "county": null,
      "stateCode": "AK",
      "epaRegion": "10",
      "zipCode": "99515",
      "latitude": "61.140848",
      "longitude": "-149.880153",
      "location": "0101000020E61000003ECF9F362ABC62C07FDAA84E07924E40",
      "contactPhone": "907-334-1133",
      "sourceId": "1032095",
      "facilitySubtypes": "Metal Recyclers (U.S. EPA/OLEM (2020))",
      "facilitySubtypeIds": "38",
      "facilityTypes": true,
      "facilityTypeIds": 7,
      "hasDfr": 0,
      "totalCount": 41909
    },
    {
      "id": "AK_1032096",
      "name": "Gary Paxton Industrial Park Scrap Yard",
      "streetAddress": "4655 Sawmill Creek Rd",
      "city": "Sitka",
      "county": null,
      "stateCode": "AK",
      "epaRegion": "10",
      "zipCode": "99835",
      "latitude": "57.04762784",
      "longitude": "-135.2329636",
      "location": "0101000020E61000001265147074E760C0ED9647AB18864C40",
      "contactPhone": "907-747-0549",
      "sourceId": "1032096",
      "facilitySubtypes": "Vehicle Recyclers (U.S. EPA/OLEM (2020)), Tire Recyclers (U.S. EPA/OLEM (2020)), Metal Recyclers (U.S. EPA/OLEM (2020))",
      "facilitySubtypeIds": "40,39,38",
      "facilityTypes": true,
      "facilityTypeIds": 7,
      "hasDfr": 0,
      "totalCount": 41909
    },
    {
      "id": "AK_1032097",
      "name": "Northwest Auto Parts PRP",
      "streetAddress": "5700 Camelot Dr",
      "city": "Anchorage",
      "county": null,
      "stateCode": "AK",
      "epaRegion": "10",
      "zipCode": "99504",
      "latitude": "61.22053649",
      "longitude": "-149.7733695",
      "location": "0101000020E61000002AC76471BFB862C0F40F2A8A3A9C4E40",
      "contactPhone": "907-333-6531",
      "sourceId": "1032097",
      "facilitySubtypes": "Vehicle Recyclers (U.S. EPA/OLEM (2020)), Tire Recyclers (U.S. EPA/OLEM (2020))",
      "facilitySubtypeIds": "40,39",
      "facilityTypes": true,
      "facilityTypeIds": 7,
      "hasDfr": 0,
      "totalCount": 41909
    },
    {
      "id": "AK_1032098",
      "name": "Skookum Recycling",
      "streetAddress": "1725 Anka St",
      "city": "Lemon Creek",
      "county": null,
      "stateCode": "AK",
      "epaRegion": "10",
      "zipCode": "99801",
      "latitude": "58.357773",
      "longitude": "-134.4936233",
      "location": "0101000020E6100000654117C3CBCF60C027327381CB2D4D40",
      "contactPhone": "907-723-7579",
      "sourceId": "1032098",
      "facilitySubtypes": "Vehicle Recyclers (U.S. EPA/OLEM (2020))",
      "facilitySubtypeIds": "40",
      "facilityTypes": true,
      "facilityTypeIds": 7,
      "hasDfr": 0,
      "totalCount": 41909
    },
    {
      "id": "AK_1032100",
      "name": "Sitka Transfer Station",
      "streetAddress": "206 Jarvis St",
      "city": "Sitka",
      "county": null,
      "stateCode": "AK",
      "epaRegion": "10",
      "zipCode": "99835",
      "latitude": "57.05050601",
      "longitude": "-135.3103873",
      "location": "0101000020E610000000D358B1EEE960C0C9991EFB76864C40",
      "contactPhone": "907-747-8644",
      "sourceId": "1032100",
      "facilitySubtypes": "Metal Recyclers (U.S. EPA/OLEM (2020))",
      "facilitySubtypeIds": "38",
      "facilityTypes": true,
      "facilityTypeIds": 7,
      "hasDfr": 0,
      "totalCount": 41909
    },
    {
      "id": "AK_1032102",
      "name": "Akhiok Landfill",
      "streetAddress": "N/A",
      "city": "Akhiok",
      "county": null,
      "stateCode": "AK",
      "epaRegion": "10",
      "zipCode": "99615",
      "latitude": "56.945923",
      "longitude": "-154.165158",
      "location": "0101000020E610000087156EF9484563C061C43E0114794C40",
      "contactPhone": "907-836-2229",
      "sourceId": "1032102",
      "facilitySubtypes": "Inert or Construction and Demolition Landfills (U.S. EPA/OLEM (2020)), C&D Recyclers (U.S. EPA/OLEM (2020))",
      "facilitySubtypeIds": "5,33",
      "facilityTypes": true,
      "facilityTypeIds": 1,
      "hasDfr": 0,
      "totalCount": 41909
    },
    {
      "id": "AK_1032103",
      "name": "Akiak Landfill",
      "streetAddress": "N/A",
      "city": "Akiak",
      "county": null,
      "stateCode": "AK",
      "epaRegion": "10",
      "zipCode": "99552",
      "latitude": "60.910109",
      "longitude": "-161.231979",
      "location": "0101000020E61000007B4B395F6C2764C0CB65A3737E744E40",
      "contactPhone": "907-765-7411",
      "sourceId": "1032103",
      "facilitySubtypes": "Inert or Construction and Demolition Landfills (U.S. EPA/OLEM (2020)), C&D Recyclers (U.S. EPA/OLEM (2020))",
      "facilitySubtypeIds": "5,33",
      "facilityTypes": true,
      "facilityTypeIds": 1,
      "hasDfr": 0,
      "totalCount": 41909
    },
    {
      "id": "AK_1032104",
      "name": "Alakanuk Landfill",
      "streetAddress": "N/A",
      "city": "Alakanuk",
      "county": null,
      "stateCode": "AK",
      "epaRegion": "10",
      "zipCode": "99554",
      "latitude": "62.682643",
      "longitude": "-164.641006",
      "location": "0101000020E610000046D1031F839464C0F2EB87D860574F40",
      "contactPhone": "907-238-3313",
      "sourceId": "1032104",
      "facilitySubtypes": "C&D Recyclers (U.S. EPA/OLEM (2020)), Inert or Construction and Demolition Landfills (U.S. EPA/OLEM (2020))",
      "facilitySubtypeIds": "33,5",
      "facilityTypes": true,
      "facilityTypeIds": 1,
      "hasDfr": 0,
      "totalCount": 41909
    },
    {
      "id": "AK_1032105",
      "name": "Aleknagik North Shore Landfill",
      "streetAddress": "N/A",
      "city": "Aleknagik",
      "county": null,
      "stateCode": "AK",
      "epaRegion": "10",
      "zipCode": "99555",
      "latitude": "59.301863",
      "longitude": "-158.615318",
      "location": "0101000020E61000007CD45FAFB0D363C0AC6F6072A3A64D40",
      "contactPhone": "907-842-5953",
      "sourceId": "1032105",
      "facilitySubtypes": "C&D Recyclers (U.S. EPA/OLEM (2020)), Inert or Construction and Demolition Landfills (U.S. EPA/OLEM (2020))",
      "facilitySubtypeIds": "33,5",
      "facilityTypes": true,
      "facilityTypeIds": 1,
      "hasDfr": 0,
      "totalCount": 41909
    },
    {
      "id": "AK_1032106",
      "name": "Ambler Landfill",
      "streetAddress": "N/A",
      "city": "Ambler",
      "county": null,
      "stateCode": "AK",
      "epaRegion": "10",
      "zipCode": "99786",
      "latitude": "67.092689",
      "longitude": "-157.928328",
      "location": "0101000020E6100000C1FEEBDCB4BD63C0BBECD79DEEC55040",
      "contactPhone": "907-445-2122",
      "sourceId": "1032106",
      "facilitySubtypes": "Inert or Construction and Demolition Landfills (U.S. EPA/OLEM (2020)), C&D Recyclers (U.S. EPA/OLEM (2020))",
      "facilitySubtypeIds": "5,33",
      "facilityTypes": true,
      "facilityTypeIds": 1,
      "hasDfr": 0,
      "totalCount": 41909
    },
    {
      "id": "AK_1032107",
      "name": "Anchorage Regional Landfill",
      "streetAddress": "15500 Eagle River Loop Rd",
      "city": "Eagle River",
      "county": null,
      "stateCode": "AK",
      "epaRegion": "10",
      "zipCode": "99577",
      "latitude": "61.289308",
      "longitude": "-149.603534",
      "location": "0101000020E6100000C500892650B362C04F3C670B08A54E40",
      "contactPhone": "907-343-6250",
      "sourceId": "1032107",
      "facilitySubtypes": "C&D Recyclers (U.S. EPA/OLEM (2020)), Electronics Recyclers (U.S. EPA/OLEM (2020)), Inert or Construction and Demolition Landfills (U.S. EPA/OLEM (2020)), Household Hazardous Waste Collection (U.S. EPA/OLEM (2020))",
      "facilitySubtypeIds": "33,36,5,37",
      "facilityTypes": true,
      "facilityTypeIds": 1,
      "hasDfr": 0,
      "totalCount": 41909
    },
    {
      "id": "AK_1032108",
      "name": "Aniak Landfill",
      "streetAddress": "N/A",
      "city": "Aniak",
      "county": null,
      "stateCode": "AK",
      "epaRegion": "10",
      "zipCode": "99557",
      "latitude": "61.584981",
      "longitude": "-159.594923",
      "location": "0101000020E61000006C94F59B09F363C004E44BA8E0CA4E40",
      "contactPhone": "907-675-4481",
      "sourceId": "1032108",
      "facilitySubtypes": "C&D Recyclers (U.S. EPA/OLEM (2020)), Inert or Construction and Demolition Landfills (U.S. EPA/OLEM (2020))",
      "facilitySubtypeIds": "33,5",
      "facilityTypes": true,
      "facilityTypeIds": 1,
      "hasDfr": 0,
      "totalCount": 41909
    },
    {
      "id": "AK_1032109",
      "name": "Anvik Landfill",
      "streetAddress": "N/A",
      "city": "Anvik",
      "county": null,
      "stateCode": "AK",
      "epaRegion": "10",
      "zipCode": "99558",
      "latitude": "62.644426",
      "longitude": "-160.206985",
      "location": "0101000020E610000067B8019F9F0664C09758198D7C524F40",
      "contactPhone": "907-663-6328",
      "sourceId": "1032109",
      "facilitySubtypes": "C&D Recyclers (U.S. EPA/OLEM (2020)), Inert or Construction and Demolition Landfills (U.S. EPA/OLEM (2020))",
      "facilitySubtypeIds": "33,5",
      "facilityTypes": true,
      "facilityTypeIds": 1,
      "hasDfr": 0,
      "totalCount": 41909
    },
    {
      "id": "AK_1032110",
      "name": "Atka Landfill",
      "streetAddress": "N/A",
      "city": "Atka",
      "county": null,
      "stateCode": "AK",
      "epaRegion": "10",
      "zipCode": "99547",
      "latitude": "52.22862",
      "longitude": "-174.194808",
      "location": "0101000020E6100000F99FFCDD3BC665C0139B8F6B431D4A40",
      "contactPhone": "907-522-0384",
      "sourceId": "1032110",
      "facilitySubtypes": "Inert or Construction and Demolition Landfills (U.S. EPA/OLEM (2020)), C&D Recyclers (U.S. EPA/OLEM (2020))",
      "facilitySubtypeIds": "5,33",
      "facilityTypes": true,
      "facilityTypeIds": 1,
      "hasDfr": 0,
      "totalCount": 41909
    },
    {
      "id": "AK_1032111",
      "name": "Atmautluak Landfill",
      "streetAddress": "N/A",
      "city": "Atmautlauk",
      "county": null,
      "stateCode": "AK",
      "epaRegion": "10",
      "zipCode": "99559",
      "latitude": "60.885741",
      "longitude": "-162.262374",
      "location": "0101000020E610000043AA285E654864C0F9DC09F65F714E40",
      "contactPhone": "907-553-2014",
      "sourceId": "1032111",
      "facilitySubtypes": "Inert or Construction and Demolition Landfills (U.S. EPA/OLEM (2020)), C&D Recyclers (U.S. EPA/OLEM (2020))",
      "facilitySubtypeIds": "5,33",
      "facilityTypes": true,
      "facilityTypeIds": 1,
      "hasDfr": 0,
      "totalCount": 41909
    },
    {
      "id": "AK_1032112",
      "name": "Barrow Landfill",
      "streetAddress": "N/A",
      "city": "Barrow",
      "county": null,
      "stateCode": "AK",
      "epaRegion": "10",
      "zipCode": "99723",
      "latitude": "71.241865",
      "longitude": "-156.553563",
      "location": "0101000020E6100000D2A8C0C9B69163C0034356B77ACF5140",
      "contactPhone": "907-852-2611",
      "sourceId": "1032112",
      "facilitySubtypes": "Inert or Construction and Demolition Landfills (U.S. EPA/OLEM (2020)), C&D Recyclers (U.S. EPA/OLEM (2020))",
      "facilitySubtypeIds": "5,33",
      "facilityTypes": true,
      "facilityTypeIds": 1,
      "hasDfr": 0,
      "totalCount": 41909
    },
    {
      "id": "AK_1032113",
      "name": "Beluga Landfill",
      "streetAddress": "N/A",
      "city": "Beluga",
      "county": null,
      "stateCode": "AK",
      "epaRegion": "10",
      "zipCode": "99682",
      "latitude": "61.155852",
      "longitude": "-151.06618",
      "location": "0101000020E6100000C7F484251EE262C0138255F5F2934E40",
      "contactPhone": "907-262-9667",
      "sourceId": "1032113",
      "facilitySubtypes": "C&D Recyclers (U.S. EPA/OLEM (2020)), Inert or Construction and Demolition Landfills (U.S. EPA/OLEM (2020))",
      "facilitySubtypeIds": "33,5",
      "facilityTypes": true,
      "facilityTypeIds": 1,
      "hasDfr": 0,
      "totalCount": 41909
    },
    {
      "id": "AK_1032114",
      "name": "Buckland Landfill",
      "streetAddress": "N/A",
      "city": "Buckland",
      "county": null,
      "stateCode": "AK",
      "epaRegion": "10",
      "zipCode": "99727",
      "latitude": "65.976782",
      "longitude": "-161.153284",
      "location": "0101000020E610000001E0D8B3E72464C09354A698837E5040",
      "contactPhone": "907-494-2121",
      "sourceId": "1032114",
      "facilitySubtypes": "C&D Recyclers (U.S. EPA/OLEM (2020)), Inert or Construction and Demolition Landfills (U.S. EPA/OLEM (2020))",
      "facilitySubtypeIds": "33,5",
      "facilityTypes": true,
      "facilityTypeIds": 1,
      "hasDfr": 0,
      "totalCount": 41909
    },
    {
      "id": "AK_1032115",
      "name": "Chalkyitsik Hilltop Subdivision Landfill",
      "streetAddress": "N/A",
      "city": "Chalkyitsik",
      "county": null,
      "stateCode": "AK",
      "epaRegion": "10",
      "zipCode": "99788",
      "latitude": "66.631608",
      "longitude": "-143.699955",
      "location": "0101000020E61000007E35070866F661C016F9F5436CA85040",
      "contactPhone": "907-848-8117",
      "sourceId": "1032115",
      "facilitySubtypes": "C&D Recyclers (U.S. EPA/OLEM (2020)), Inert or Construction and Demolition Landfills (U.S. EPA/OLEM (2020))",
      "facilitySubtypeIds": "33,5",
      "facilityTypes": true,
      "facilityTypeIds": 1,
      "hasDfr": 0,
      "totalCount": 41909
    },
    {
      "id": "AK_1032116",
      "name": "Chefornak Landfill",
      "streetAddress": "N/A",
      "city": "Chefornak",
      "county": null,
      "stateCode": "AK",
      "epaRegion": "10",
      "zipCode": "99561",
      "latitude": "60.153534",
      "longitude": "-164.288125",
      "location": "0101000020E61000001F85EB51388964C07B698A00A7134E40",
      "contactPhone": "907-867-8147",
      "sourceId": "1032116",
      "facilitySubtypes": "Inert or Construction and Demolition Landfills (U.S. EPA/OLEM (2020)), C&D Recyclers (U.S. EPA/OLEM (2020))",
      "facilitySubtypeIds": "5,33",
      "facilityTypes": true,
      "facilityTypeIds": 1,
      "hasDfr": 0,
      "totalCount": 41909
    },
    {
      "id": "AK_1032117",
      "name": "Chenega Bay Landfill",
      "streetAddress": "N/A",
      "city": "Chenega Bay",
      "county": null,
      "stateCode": "AK",
      "epaRegion": "10",
      "zipCode": "99574",
      "latitude": "60.068295",
      "longitude": "-148.018378",
      "location": "0101000020E6100000E99E758D968062C07BBDFBE3BD084E40",
      "contactPhone": "907-569-5688",
      "sourceId": "1032117",
      "facilitySubtypes": "C&D Recyclers (U.S. EPA/OLEM (2020)), Inert or Construction and Demolition Landfills (U.S. EPA/OLEM (2020))",
      "facilitySubtypeIds": "33,5",
      "facilityTypes": true,
      "facilityTypeIds": 1,
      "hasDfr": 0,
      "totalCount": 41909
    },
    {
      "id": "AK_1032118",
      "name": "Chevak Landfill",
      "streetAddress": "N/A",
      "city": "Chevak",
      "county": null,
      "stateCode": "AK",
      "epaRegion": "10",
      "zipCode": "99563",
      "latitude": "61.524117",
      "longitude": "-165.613004",
      "location": "0101000020E6100000268A90BA9DB364C089230F4416C34E40",
      "contactPhone": "907-858-7128",
      "sourceId": "1032118",
      "facilitySubtypes": "C&D Recyclers (U.S. EPA/OLEM (2020)), Inert or Construction and Demolition Landfills (U.S. EPA/OLEM (2020))",
      "facilitySubtypeIds": "33,5",
      "facilityTypes": true,
      "facilityTypeIds": 1,
      "hasDfr": 0,
      "totalCount": 41909
    },
    {
      "id": "AK_1032119",
      "name": "Chignik Lagoon Landfill",
      "streetAddress": "N/A",
      "city": "Chignik Lagoon",
      "county": null,
      "stateCode": "AK",
      "epaRegion": "10",
      "zipCode": "99565",
      "latitude": "56.293809",
      "longitude": "-158.556304",
      "location": "0101000020E61000004AD40B3ECDD163C09F2287889B254C40",
      "contactPhone": "907-840-2281",
      "sourceId": "1032119",
      "facilitySubtypes": "C&D Recyclers (U.S. EPA/OLEM (2020)), Inert or Construction and Demolition Landfills (U.S. EPA/OLEM (2020))",
      "facilitySubtypeIds": "33,5",
      "facilityTypes": true,
      "facilityTypeIds": 1,
      "hasDfr": 0,
      "totalCount": 41909
    },
    {
      "id": "AK_1032328",
      "name": "Chignik Lake Landfill",
      "streetAddress": "N/A",
      "city": "Chignik Lake",
      "county": null,
      "stateCode": "AK",
      "epaRegion": "10",
      "zipCode": "99548",
      "latitude": "56.252987",
      "longitude": "-158.745201",
      "location": "0101000020E61000004A7EC4AFD8D763C015A8C5E061204C40",
      "contactPhone": "907-845-2212",
      "sourceId": "1032328",
      "facilitySubtypes": "Inert or Construction and Demolition Landfills (U.S. EPA/OLEM (2020)), C&D Recyclers (U.S. EPA/OLEM (2020))",
      "facilitySubtypeIds": "5,33",
      "facilityTypes": true,
      "facilityTypeIds": 1,
      "hasDfr": 0,
      "totalCount": 41909
    },
    {
      "id": "AK_1032329",
      "name": "Chignik Landfill",
      "streetAddress": "N/A",
      "city": "Chignik",
      "county": null,
      "stateCode": "AK",
      "epaRegion": "10",
      "zipCode": "99548",
      "latitude": "56.306612",
      "longitude": "-158.417619",
      "location": "0101000020E6100000066685225DCD63C0D447E00F3F274C40",
      "contactPhone": "907-749-2280",
      "sourceId": "1032329",
      "facilitySubtypes": "C&D Recyclers (U.S. EPA/OLEM (2020)), Inert or Construction and Demolition Landfills (U.S. EPA/OLEM (2020))",
      "facilitySubtypeIds": "33,5",
      "facilityTypes": true,
      "facilityTypeIds": 1,
      "hasDfr": 0,
      "totalCount": 41909
    },
    {
      "id": "AK_1032331",
      "name": "Chuathbaluk Landfill",
      "streetAddress": "N/A",
      "city": "Chuathbaluk",
      "county": null,
      "stateCode": "AK",
      "epaRegion": "10",
      "zipCode": "99557",
      "latitude": "61.572624",
      "longitude": "-159.238163",
      "location": "0101000020E6100000C00303089FE763C0CD7344BE4BC94E40",
      "contactPhone": "907-467-4115",
      "sourceId": "1032331",
      "facilitySubtypes": "Inert or Construction and Demolition Landfills (U.S. EPA/OLEM (2020)), C&D Recyclers (U.S. EPA/OLEM (2020))",
      "facilitySubtypeIds": "5,33",
      "facilityTypes": true,
      "facilityTypeIds": 1,
      "hasDfr": 0,
      "totalCount": 41909
    },
    {
      "id": "AK_1032332",
      "name": "Chugiak Birchwood R&SP C&D Waste",
      "streetAddress": "20269 Birchwood Spur Rd",
      "city": "Chugiak",
      "county": null,
      "stateCode": "AK",
      "epaRegion": "10",
      "zipCode": "99567",
      "latitude": "61.421394",
      "longitude": "-149.509463",
      "location": "0101000020E6100000B57059854DB062C0855D143DF0B54E40",
      "contactPhone": "907-688-2809",
      "sourceId": "1032332",
      "facilitySubtypes": "C&D Recyclers (U.S. EPA/OLEM (2020)), Inert or Construction and Demolition Landfills (U.S. EPA/OLEM (2020))",
      "facilitySubtypeIds": "33,5",
      "facilityTypes": true,
      "facilityTypeIds": 1,
      "hasDfr": 0,
      "totalCount": 41909
    },
    {
      "id": "AK_1032335",
      "name": "Clear AFS Inert Waste",
      "streetAddress": "Clear AFS",
      "city": "Healy",
      "county": null,
      "stateCode": "AK",
      "epaRegion": "10",
      "zipCode": "99743",
      "latitude": "64.2771",
      "longitude": "-149.2016",
      "location": "0101000020E6100000F5DBD78173A662C02F6EA301BC115040",
      "contactPhone": "850-398-8489",
      "sourceId": "1032335",
      "facilitySubtypes": "Inert or Construction and Demolition Landfills (U.S. EPA/OLEM (2020)), C&D Recyclers (U.S. EPA/OLEM (2020))",
      "facilitySubtypeIds": "5,33",
      "facilityTypes": true,
      "facilityTypeIds": 1,
      "hasDfr": 0,
      "totalCount": 41909
    },
    {
      "id": "AK_1032337",
      "name": "Cold Bay Landfill",
      "streetAddress": "N/A",
      "city": "Cold Bay",
      "county": null,
      "stateCode": "AK",
      "epaRegion": "10",
      "zipCode": "99571",
      "latitude": "55.219787",
      "longitude": "-162.727943",
      "location": "0101000020E6100000454B1E4F4B5764C0008BFCFA219C4B40",
      "contactPhone": "907-532-2401",
      "sourceId": "1032337",
      "facilitySubtypes": "Inert or Construction and Demolition Landfills (U.S. EPA/OLEM (2020)), C&D Recyclers (U.S. EPA/OLEM (2020))",
      "facilitySubtypeIds": "5,33",
      "facilityTypes": true,
      "facilityTypeIds": 1,
      "hasDfr": 0,
      "totalCount": 41909
    },
    {
      "id": "AK_1032338",
      "name": "Cordova Mile 17 Landfill - Class II",
      "streetAddress": "Mile 17 Copper River Hwy",
      "city": "Cordova",
      "county": null,
      "stateCode": "AK",
      "epaRegion": "10",
      "zipCode": "99574",
      "latitude": "60.481675",
      "longitude": "-145.332539",
      "location": "0101000020E6100000A034D428A42A62C08126C286A73D4E40",
      "contactPhone": "907-424-5600",
      "sourceId": "1032338",
      "facilitySubtypes": "Inert or Construction and Demolition Landfills (U.S. EPA/OLEM (2020)), C&D Recyclers (U.S. EPA/OLEM (2020))",
      "facilitySubtypeIds": "5,33",
      "facilityTypes": true,
      "facilityTypeIds": 1,
      "hasDfr": 0,
      "totalCount": 41909
    },
    {
      "id": "AK_1032340",
      "name": "Crooked Creek Landfill",
      "streetAddress": "N/A",
      "city": "Crooked Creek",
      "county": null,
      "stateCode": "AK",
      "epaRegion": "10",
      "zipCode": "99575",
      "latitude": "61.859327",
      "longitude": "-158.141988",
      "location": "0101000020E6100000950D6B2A8BC463C0EFC8586DFEED4E40",
      "contactPhone": "907-432-2200",
      "sourceId": "1032340",
      "facilitySubtypes": "Inert or Construction and Demolition Landfills (U.S. EPA/OLEM (2020)), C&D Recyclers (U.S. EPA/OLEM (2020))",
      "facilitySubtypeIds": "5,33",
      "facilityTypes": true,
      "facilityTypeIds": 1,
      "hasDfr": 0,
      "totalCount": 41909
    },
    {
      "id": "AK_1032343",
      "name": "Delta Junction Landfill - Class II",
      "streetAddress": "Milepost 2572 Richardson Hwy",
      "city": "Delta Junction",
      "county": null,
      "stateCode": "AK",
      "epaRegion": "10",
      "zipCode": "99737",
      "latitude": "63.916487",
      "longitude": "-145.790149",
      "location": "0101000020E6100000F33E8EE6483962C0C51A2E724FF54F40",
      "contactPhone": "907-895-1807",
      "sourceId": "1032343",
      "facilitySubtypes": "C&D Recyclers (U.S. EPA/OLEM (2020)), Inert or Construction and Demolition Landfills (U.S. EPA/OLEM (2020))",
      "facilitySubtypeIds": "33,5",
      "facilityTypes": true,
      "facilityTypeIds": 1,
      "hasDfr": 0,
      "totalCount": 41909
    },
    {
      "id": "AK_1032346",
      "name": "Denali Borough Landfill - Class II",
      "streetAddress": "Mile 2825 Parks Hwy",
      "city": "Healy",
      "county": null,
      "stateCode": "AK",
      "epaRegion": "10",
      "zipCode": "99743",
      "latitude": "64.274",
      "longitude": "-149.1008",
      "location": "0101000020E6100000FAEDEBC039A362C0A8C64B3789115040",
      "contactPhone": "907-582-1330",
      "sourceId": "1032346",
      "facilitySubtypes": "Inert or Construction and Demolition Landfills (U.S. EPA/OLEM (2020)), C&D Recyclers (U.S. EPA/OLEM (2020))",
      "facilitySubtypeIds": "5,33",
      "facilityTypes": true,
      "facilityTypeIds": 1,
      "hasDfr": 0,
      "totalCount": 41909
    },
    {
      "id": "AK_1032349",
      "name": "Dillingham Landfill - Class II",
      "streetAddress": "Waskey Road",
      "city": "Dillingham",
      "county": null,
      "stateCode": "AK",
      "epaRegion": "10",
      "zipCode": "99576",
      "latitude": "59.097498",
      "longitude": "-158.547821",
      "location": "0101000020E6100000FCE1E7BF87D163C074B680D07A8C4D40",
      "contactPhone": "907-842-1666",
      "sourceId": "1032349",
      "facilitySubtypes": "C&D Recyclers (U.S. EPA/OLEM (2020)), Inert or Construction and Demolition Landfills (U.S. EPA/OLEM (2020))",
      "facilitySubtypeIds": "33,5",
      "facilityTypes": true,
      "facilityTypeIds": 1,
      "hasDfr": 0,
      "totalCount": 41909
    },
    {
      "id": "AK_1032351",
      "name": "Dot Lake Landfill",
      "streetAddress": "N/A",
      "city": "Dot Lake",
      "county": null,
      "stateCode": "AK",
      "epaRegion": "10",
      "zipCode": "99737",
      "latitude": "63.65403",
      "longitude": "-144.0184",
      "location": "0101000020E6100000E3C798BB960062C02B4D4A41B7D34F40",
      "contactPhone": "907-882-2695",
      "sourceId": "1032351",
      "facilitySubtypes": "Inert or Construction and Demolition Landfills (U.S. EPA/OLEM (2020)), C&D Recyclers (U.S. EPA/OLEM (2020))",
      "facilitySubtypeIds": "5,33",
      "facilityTypes": true,
      "facilityTypeIds": 1,
      "hasDfr": 0,
      "totalCount": 41909
    },
    {
      "id": "AK_1032353",
      "name": "Eagle Landfill",
      "streetAddress": "N/A",
      "city": "Eagle",
      "county": null,
      "stateCode": "AK",
      "epaRegion": "10",
      "zipCode": "99738",
      "latitude": "64.76968",
      "longitude": "-141.09078",
      "location": "0101000020E6100000306475ABE7A261C0A818E76F42315040",
      "contactPhone": "907-547-2281",
      "sourceId": "1032353",
      "facilitySubtypes": "C&D Recyclers (U.S. EPA/OLEM (2020)), Inert or Construction and Demolition Landfills (U.S. EPA/OLEM (2020))",
      "facilitySubtypeIds": "33,5",
      "facilityTypes": true,
      "facilityTypeIds": 1,
      "hasDfr": 0,
      "totalCount": 41909
    },
    {
      "id": "AK_1032355",
      "name": "Eareckson Air Station Landfill - Class II",
      "streetAddress": "Shemya Island",
      "city": "Shemya",
      "county": null,
      "stateCode": "AK",
      "epaRegion": "10",
      "zipCode": "99546",
      "latitude": "52.712574",
      "longitude": "174.142528",
      "location": "0101000020E61000007558E1968FC465406DFDF49F355B4A40",
      "contactPhone": "907-552-7948",
      "sourceId": "1032355",
      "facilitySubtypes": "C&D Recyclers (U.S. EPA/OLEM (2020)), Inert or Construction and Demolition Landfills (U.S. EPA/OLEM (2020))",
      "facilitySubtypeIds": "33,5",
      "facilityTypes": true,
      "facilityTypeIds": 1,
      "hasDfr": 0,
      "totalCount": 41909
    },
    {
      "id": "AK_1032357",
      "name": "Eek Eastside Landfill",
      "streetAddress": "N/A",
      "city": "Eek",
      "county": null,
      "stateCode": "AK",
      "epaRegion": "10",
      "zipCode": "99578",
      "latitude": "60.213741",
      "longitude": "-162.004721",
      "location": "0101000020E61000005793A7AC264064C03C6876DD5B1B4E40",
      "contactPhone": "907-536-5129",
      "sourceId": "1032357",
      "facilitySubtypes": "Inert or Construction and Demolition Landfills (U.S. EPA/OLEM (2020)), C&D Recyclers (U.S. EPA/OLEM (2020))",
      "facilitySubtypeIds": "5,33",
      "facilityTypes": true,
      "facilityTypeIds": 1,
      "hasDfr": 0,
      "totalCount": 41909
    },
    {
      "id": "AK_1032542",
      "name": "Eielson AFB Quarry Hill Inert Waste",
      "streetAddress": "Quarry Hill",
      "city": "Eielson AFB",
      "county": null,
      "stateCode": "AK",
      "epaRegion": "10",
      "zipCode": "99714",
      "latitude": "64.6535",
      "longitude": "-146.9746",
      "location": "0101000020E6100000D0D556EC2F5F62C0E7FBA9F1D2295040",
      "contactPhone": "907-377-1659",
      "sourceId": "1032542",
      "facilitySubtypes": "C&D Recyclers (U.S. EPA/OLEM (2020)), Inert or Construction and Demolition Landfills (U.S. EPA/OLEM (2020))",
      "facilitySubtypeIds": "33,5",
      "facilityTypes": true,
      "facilityTypeIds": 1,
      "hasDfr": 0,
      "totalCount": 41909
    },
    {
      "id": "AK_1032543",
      "name": "Ekwok West Klutuk Creek Landfill",
      "streetAddress": "N/A",
      "city": "Ekwok",
      "county": null,
      "stateCode": "AK",
      "epaRegion": "10",
      "zipCode": "99580",
      "latitude": "59.359444",
      "longitude": "-157.504722",
      "location": "0101000020E61000004B72C0AE26B063C0295FD04202AE4D40",
      "contactPhone": "907-464-3336",
      "sourceId": "1032543",
      "facilitySubtypes": "Inert or Construction and Demolition Landfills (U.S. EPA/OLEM (2020)), C&D Recyclers (U.S. EPA/OLEM (2020))",
      "facilitySubtypeIds": "5,33",
      "facilityTypes": true,
      "facilityTypeIds": 1,
      "hasDfr": 0,
      "totalCount": 41909
    },
    {
      "id": "AK_1032544",
      "name": "Emmonak Northwest Landfill",
      "streetAddress": "N/A",
      "city": "Emmonak",
      "county": null,
      "stateCode": "AK",
      "epaRegion": "10",
      "zipCode": "99581",
      "latitude": "62.783887",
      "longitude": "-164.584336",
      "location": "0101000020E6100000043C69E1B29264C03961C26856644F40",
      "contactPhone": "907-949-1227",
      "sourceId": "1032544",
      "facilitySubtypes": "Inert or Construction and Demolition Landfills (U.S. EPA/OLEM (2020)), C&D Recyclers (U.S. EPA/OLEM (2020))",
      "facilitySubtypeIds": "5,33",
      "facilityTypes": true,
      "facilityTypeIds": 1,
      "hasDfr": 0,
      "totalCount": 41909
    },
    {
      "id": "AK_1032545",
      "name": "Fairbanks Reeves C&D",
      "streetAddress": "Goldstream Rd @ Old Steese Hwy N",
      "city": "Fairbanks",
      "county": null,
      "stateCode": "AK",
      "epaRegion": "10",
      "zipCode": "99712",
      "latitude": "64.9406",
      "longitude": "-147.6694",
      "location": "0101000020E6100000287E8CB96B7562C087A757CA323C5040",
      "contactPhone": "907-457-2197",
      "sourceId": "1032545",
      "facilitySubtypes": "C&D Recyclers (U.S. EPA/OLEM (2020)), Inert or Construction and Demolition Landfills (U.S. EPA/OLEM (2020))",
      "facilitySubtypeIds": "33,5",
      "facilityTypes": true,
      "facilityTypeIds": 1,
      "hasDfr": 0,
      "totalCount": 41909
    },
    {
      "id": "AK_1032546",
      "name": "Fairbanks South Cushman Landfill - Class I",
      "streetAddress": "455 Sanduri St",
      "city": "Fairbanks",
      "county": null,
      "stateCode": "AK",
      "epaRegion": "10",
      "zipCode": "99701",
      "latitude": "64.8026",
      "longitude": "-147.6953",
      "location": "0101000020E6100000151DC9E53F7662C041F163CC5D335040",
      "contactPhone": "907-459-1482",
      "sourceId": "1032546",
      "facilitySubtypes": "C&D Recyclers (U.S. EPA/OLEM (2020)), Inert or Construction and Demolition Landfills (U.S. EPA/OLEM (2020))",
      "facilitySubtypeIds": "33,5",
      "facilityTypes": true,
      "facilityTypeIds": 1,
      "hasDfr": 0,
      "totalCount": 41909
    },
    {
      "id": "AK_1032547",
      "name": "False Pass Landfill",
      "streetAddress": "N/A",
      "city": "False Pass",
      "county": null,
      "stateCode": "AK",
      "epaRegion": "10",
      "zipCode": "99583",
      "latitude": "54.873562",
      "longitude": "-163.413943",
      "location": "0101000020E61000000FED63053F6D64C0A1832EE1D06F4B40",
      "contactPhone": "907-548-2319",
      "sourceId": "1032547",
      "facilitySubtypes": "C&D Recyclers (U.S. EPA/OLEM (2020)), Inert or Construction and Demolition Landfills (U.S. EPA/OLEM (2020))",
      "facilitySubtypeIds": "33,5",
      "facilityTypes": true,
      "facilityTypeIds": 1,
      "hasDfr": 0,
      "totalCount": 41909
    },
    {
      "id": "AK_1032548",
      "name": "Fort Greely Inert Waste",
      "streetAddress": "Fort Greely",
      "city": "Delta Junction",
      "county": null,
      "stateCode": "AK",
      "epaRegion": "10",
      "zipCode": "99737",
      "latitude": "63.963481",
      "longitude": "-145.703939",
      "location": "0101000020E610000020EC14AB863662C0A0A86C5853FB4F40",
      "contactPhone": "907-873-7380",
      "sourceId": "1032548",
      "facilitySubtypes": "Inert or Construction and Demolition Landfills (U.S. EPA/OLEM (2020)), C&D Recyclers (U.S. EPA/OLEM (2020))",
      "facilitySubtypeIds": "5,33",
      "facilityTypes": true,
      "facilityTypeIds": 1,
      "hasDfr": 0,
      "totalCount": 41909
    },
    {
      "id": "AK_1032549",
      "name": "Fort Greely Landfill - Class II",
      "streetAddress": "Landfill Rd",
      "city": "Delta Junction",
      "county": null,
      "stateCode": "AK",
      "epaRegion": "10",
      "zipCode": "99731",
      "latitude": "63.9447",
      "longitude": "-145.703",
      "location": "0101000020E6100000D122DBF97E3662C0FE43FAEDEBF84F40",
      "contactPhone": "907-873-7380",
      "sourceId": "1032549",
      "facilitySubtypes": "C&D Recyclers (U.S. EPA/OLEM (2020)), Inert or Construction and Demolition Landfills (U.S. EPA/OLEM (2020))",
      "facilitySubtypeIds": "33,5",
      "facilityTypes": true,
      "facilityTypeIds": 1,
      "hasDfr": 0,
      "totalCount": 41909
    },
    {
      "id": "AK_1032550",
      "name": "Fort Wainwright Landfill - Class I",
      "streetAddress": "River Rd",
      "city": "Fort Wainwright",
      "county": null,
      "stateCode": "AK",
      "epaRegion": "10",
      "zipCode": "99701",
      "latitude": "64.854",
      "longitude": "-147.627",
      "location": "0101000020E6100000F2D24D62107462C02DB29DEFA7365040",
      "contactPhone": "907-361-6791",
      "sourceId": "1032550",
      "facilitySubtypes": "Inert or Construction and Demolition Landfills (U.S. EPA/OLEM (2020)), C&D Recyclers (U.S. EPA/OLEM (2020))",
      "facilitySubtypeIds": "5,33",
      "facilityTypes": true,
      "facilityTypeIds": 1,
      "hasDfr": 0,
      "totalCount": 41909
    },
    {
      "id": "AK_1032551",
      "name": "Galena Landfill",
      "streetAddress": "N/A",
      "city": "Galena",
      "county": null,
      "stateCode": "AK",
      "epaRegion": "10",
      "zipCode": "99741",
      "latitude": "64.705828",
      "longitude": "-156.730384",
      "location": "0101000020E6100000B130444E5F9763C0782634492C2D5040",
      "contactPhone": "907-656-1301",
      "sourceId": "1032551",
      "facilitySubtypes": "Inert or Construction and Demolition Landfills (U.S. EPA/OLEM (2020)), C&D Recyclers (U.S. EPA/OLEM (2020))",
      "facilitySubtypeIds": "5,33",
      "facilityTypes": true,
      "facilityTypeIds": 1,
      "hasDfr": 0,
      "totalCount": 41909
    },
    {
      "id": "AK_1032552",
      "name": "Glennallen Landfill - Class II",
      "streetAddress": "Mile 1225 Richardson Hwy",
      "city": "Glennallen",
      "county": null,
      "stateCode": "AK",
      "epaRegion": "10",
      "zipCode": "99588",
      "latitude": "62.206987",
      "longitude": "-145.447282",
      "location": "0101000020E6100000DD425722502E62C03CD9CD8C7E1A4F40",
      "contactPhone": "907-822-3600",
      "sourceId": "1032552",
      "facilitySubtypes": "Inert or Construction and Demolition Landfills (U.S. EPA/OLEM (2020)), C&D Recyclers (U.S. EPA/OLEM (2020))",
      "facilitySubtypeIds": "5,33",
      "facilityTypes": true,
      "facilityTypeIds": 1,
      "hasDfr": 0,
      "totalCount": 41909
    },
    {
      "id": "AK_1032553",
      "name": "Haines CWS Landfill",
      "streetAddress": "N/A",
      "city": "Haines",
      "county": null,
      "stateCode": "AK",
      "epaRegion": "10",
      "zipCode": "99827",
      "latitude": "59.218924",
      "longitude": "-135.425329",
      "location": "0101000020E61000004B21904B9CED60C09E279EB3059C4D40",
      "contactPhone": "907-766-2736",
      "sourceId": "1032553",
      "facilitySubtypes": "C&D Recyclers (U.S. EPA/OLEM (2020)), Inert or Construction and Demolition Landfills (U.S. EPA/OLEM (2020))",
      "facilitySubtypeIds": "33,5",
      "facilityTypes": true,
      "facilityTypeIds": 1,
      "hasDfr": 0,
      "totalCount": 41909
    },
    {
      "id": "AK_1032554",
      "name": "Holy Cross Landfill",
      "streetAddress": "N/A",
      "city": "Holy Cross",
      "county": null,
      "stateCode": "AK",
      "epaRegion": "10",
      "zipCode": "99602",
      "latitude": "62.190421",
      "longitude": "-159.793809",
      "location": "0101000020E6100000A8C821E266F963C05EBC1FB75F184F40",
      "contactPhone": "907-476-7139",
      "sourceId": "1032554",
      "facilitySubtypes": "Inert or Construction and Demolition Landfills (U.S. EPA/OLEM (2020)), C&D Recyclers (U.S. EPA/OLEM (2020))",
      "facilitySubtypeIds": "5,33",
      "facilityTypes": true,
      "facilityTypeIds": 1,
      "hasDfr": 0,
      "totalCount": 41909
    },
    {
      "id": "AK_1032555",
      "name": "Homer C&D Monofill",
      "streetAddress": "Mile 1693 Sterling Hwy",
      "city": "Homer",
      "county": null,
      "stateCode": "AK",
      "epaRegion": "10",
      "zipCode": "99603",
      "latitude": "59.661687",
      "longitude": "-151.63665",
      "location": "0101000020E6100000F31FD26F5FF462C01C98DC28B2D44D40",
      "contactPhone": "907-262-9667",
      "sourceId": "1032555",
      "facilitySubtypes": "C&D Recyclers (U.S. EPA/OLEM (2020)), Inert or Construction and Demolition Landfills (U.S. EPA/OLEM (2020))",
      "facilitySubtypeIds": "33,5",
      "facilityTypes": true,
      "facilityTypeIds": 1,
      "hasDfr": 0,
      "totalCount": 41909
    },
    {
      "id": "AK_1032556",
      "name": "Hoonah Landfill",
      "streetAddress": "N/A",
      "city": "Hoonah",
      "county": null,
      "stateCode": "AK",
      "epaRegion": "10",
      "zipCode": "99829",
      "latitude": "58.112153",
      "longitude": "-135.383369",
      "location": "0101000020E61000009BA9108F44EC60C0FB928D075B0E4D40",
      "contactPhone": "907-957-2386",
      "sourceId": "1032556",
      "facilitySubtypes": "Inert or Construction and Demolition Landfills (U.S. EPA/OLEM (2020)), C&D Recyclers (U.S. EPA/OLEM (2020))",
      "facilitySubtypeIds": "5,33",
      "facilityTypes": true,
      "facilityTypeIds": 1,
      "hasDfr": 0,
      "totalCount": 41909
    },
    {
      "id": "AK_1032557",
      "name": "Hooper Bay Landfill",
      "streetAddress": "N/A",
      "city": "Hooper Bay",
      "county": null,
      "stateCode": "AK",
      "epaRegion": "10",
      "zipCode": "99604",
      "latitude": "61.535534",
      "longitude": "-166.101756",
      "location": "0101000020E61000007F85CC9541C364C0B2F2CB608CC44E40",
      "contactPhone": "907-758-4311",
      "sourceId": "1032557",
      "facilitySubtypes": "C&D Recyclers (U.S. EPA/OLEM (2020)), Inert or Construction and Demolition Landfills (U.S. EPA/OLEM (2020))",
      "facilitySubtypeIds": "33,5",
      "facilityTypes": true,
      "facilityTypeIds": 1,
      "hasDfr": 0,
      "totalCount": 41909
    },
    {
      "id": "AK_1032558",
      "name": "Iliamna Landfill",
      "streetAddress": "N/A",
      "city": "Iliamna",
      "county": null,
      "stateCode": "AK",
      "epaRegion": "10",
      "zipCode": "99606",
      "latitude": "59.783836",
      "longitude": "-154.901292",
      "location": "0101000020E6100000B0045262D75C63C0B7B6F0BC54E44D40",
      "contactPhone": "907-571-1246",
      "sourceId": "1032558",
      "facilitySubtypes": "Inert or Construction and Demolition Landfills (U.S. EPA/OLEM (2020)), C&D Recyclers (U.S. EPA/OLEM (2020))",
      "facilitySubtypeIds": "5,33",
      "facilityTypes": true,
      "facilityTypeIds": 1,
      "hasDfr": 0,
      "totalCount": 41909
    },
    {
      "id": "AK_1032559",
      "name": "Juneau Capitol Disposal Landfill - Class I",
      "streetAddress": "5600 Tonsgard Court",
      "city": "Juneau",
      "county": null,
      "stateCode": "AK",
      "epaRegion": "10",
      "zipCode": "99801",
      "latitude": "58.35222",
      "longitude": "-134.5002",
      "location": "0101000020E6100000B22E6EA301D060C0A27F828B152D4D40",
      "contactPhone": "907-780-7801",
      "sourceId": "1032559",
      "facilitySubtypes": "C&D Recyclers (U.S. EPA/OLEM (2020)), Inert or Construction and Demolition Landfills (U.S. EPA/OLEM (2020))",
      "facilitySubtypeIds": "33,5",
      "facilityTypes": true,
      "facilityTypeIds": 1,
      "hasDfr": 0,
      "totalCount": 41909
    },
    {
      "id": "AK_1032560",
      "name": "Kake Landfill",
      "streetAddress": "N/A",
      "city": "Kake",
      "county": null,
      "stateCode": "AK",
      "epaRegion": "10",
      "zipCode": "99830",
      "latitude": "56.949911",
      "longitude": "-133.844766",
      "location": "0101000020E6100000BAD8B45208BB60C02A8E03AF96794C40",
      "contactPhone": "907-785-3804",
      "sourceId": "1032560",
      "facilitySubtypes": "C&D Recyclers (U.S. EPA/OLEM (2020)), Inert or Construction and Demolition Landfills (U.S. EPA/OLEM (2020))",
      "facilitySubtypeIds": "33,5",
      "facilityTypes": true,
      "facilityTypeIds": 1,
      "hasDfr": 0,
      "totalCount": 41909
    },
    {
      "id": "AK_1032561",
      "name": "Kaltag 13 mile North Landfill",
      "streetAddress": "N/A",
      "city": "Kaltag",
      "county": null,
      "stateCode": "AK",
      "epaRegion": "10",
      "zipCode": "99748",
      "latitude": "64.309088",
      "longitude": "-158.741291",
      "location": "0101000020E6100000363AE7A7B8D763C082E50819C8135040",
      "contactPhone": "907-534-2301",
      "sourceId": "1032561",
      "facilitySubtypes": "C&D Recyclers (U.S. EPA/OLEM (2020)), Inert or Construction and Demolition Landfills (U.S. EPA/OLEM (2020))",
      "facilitySubtypeIds": "33,5",
      "facilityTypes": true,
      "facilityTypeIds": 1,
      "hasDfr": 0,
      "totalCount": 41909
    },
    {
      "id": "AK_1032562",
      "name": "Karluk Landfill",
      "streetAddress": "N/A",
      "city": "Karluk",
      "county": null,
      "stateCode": "AK",
      "epaRegion": "10",
      "zipCode": "99608",
      "latitude": "57.562713",
      "longitude": "-154.431843",
      "location": "0101000020E6100000354069A8D14D63C05C04C6FA06C84C40",
      "contactPhone": "907-241-2218",
      "sourceId": "1032562",
      "facilitySubtypes": "C&D Recyclers (U.S. EPA/OLEM (2020)), Inert or Construction and Demolition Landfills (U.S. EPA/OLEM (2020))",
      "facilitySubtypeIds": "33,5",
      "facilityTypes": true,
      "facilityTypeIds": 1,
      "hasDfr": 0,
      "totalCount": 41909
    },
    {
      "id": "AK_1032563",
      "name": "Kenai NRD Inert Waste",
      "streetAddress": "Mile 18 Kenai Spur Hwy",
      "city": "Kenai",
      "county": null,
      "stateCode": "AK",
      "epaRegion": "10",
      "zipCode": "99611",
      "latitude": "60.63193",
      "longitude": "-151.341221",
      "location": "0101000020E6100000AB764D48EBEA62C03EAE0D15E3504E40",
      "contactPhone": "907-262-9667",
      "sourceId": "1032563",
      "facilitySubtypes": "Inert or Construction and Demolition Landfills (U.S. EPA/OLEM (2020)), C&D Recyclers (U.S. EPA/OLEM (2020))",
      "facilitySubtypeIds": "5,33",
      "facilityTypes": true,
      "facilityTypeIds": 1,
      "hasDfr": 0,
      "totalCount": 41909
    }
  ],
  "total": 41909,
  "currentPage": 1
}